id,year,month,day,hour,minute,second,locationName,latitude,longitude,eqDepth,eqMagnitude,damageAmountOrder,eqMagMb,publish,damageAmountOrderTotal,housesDamagedTotal,housesDamagedAmountOrderTotal,country,regionCode,injuries,injuriesAmountOrder,housesDestroyed,housesDestroyedAmountOrder,housesDamaged,housesDamagedAmountOrder,eqMagMw,eqMagMs,injuriesTotal,injuriesAmountOrderTotal,housesDestroyedTotal,housesDestroyedAmountOrderTotal,deaths,deathsAmountOrder,damageMillionsDollars,eqMagMl,deathsTotal,deathsAmountOrderTotal,damageMillionsDollarsTotal,tsunamiEventId,intensity,volcanoEventId,area,missing,missingAmountOrder,missingTotal,missingAmountOrderTotal,time
5551,2000,1,3,22,34,12.6,INDIA-BANGLADESH BORDER:  MAHESHKHALI,22.132,92.771,33.0,4.6,1.0,4.6,True,1.0,100.0,2.0,INDIA,60,,,,,,,,,,,,,,,,,,,,,,,,,,,,2000-01-03 00:00:00+00:00
5552,2000,1,11,23,43,56.4,CHINA:  LIAONING PROVINCE,40.498,122.994,10.0,5.1,3.0,4.9,True,3.0,8800.0,4.0,CHINA,30,30.0,1.0,3600.0,4.0,8800.0,4.0,5.1,4.7,30.0,1.0,3600.0,4.0,,,,,,,,,,,,,,,,2000-01-11 00:00:00+00:00
5553,2000,1,14,23,37,7.8,CHINA:  YUNNAN PROVINCE:  YAOAN COUNTY,25.607,101.063,33.0,5.9,4.0,5.4,True,4.0,,,CHINA,30,2528.0,4.0,41000.0,4.0,,,5.9,5.9,2528.0,4.0,41000.0,4.0,5.0,1.0,73.5,5.5,7.0,1.0,73.5,,,,,,,,,2000-01-14 00:00:00+00:00
5554,2000,2,2,22,58,1.5,"IRAN:  BARDASKAN, KASHMAR",35.288,58.218,33.0,5.3,2.0,5.1,True,2.0,300.0,3.0,IRAN,140,15.0,1.0,100.0,2.0,100.0,2.0,5.3,5.3,15.0,1.0,100.0,2.0,1.0,1.0,,,1.0,1.0,,,,,,,,,,2000-02-02 00:00:00+00:00
5555,2000,2,7,19,34,57.0,SOUTH AFRICA; SWAZILAND:  MBABANE-MANZINI,-26.288,30.888,5.0,4.5,1.0,4.5,True,1.0,,,SOUTH AFRICA,10,1.0,1.0,,,,,,,1.0,1.0,,,,,,,,,,,,,,,,,,2000-02-07 00:00:00+00:00
5556,2000,3,28,11,0,22.5,JAPAN:  VOLCANO ISLANDS,22.338,143.73,127.0,7.6,,6.8,True,,,,JAPAN,30,,,,,,,7.6,7.6,,,,,,,,,,,,,,,,,,,,2000-03-28 00:00:00+00:00
5557,2000,5,4,4,21,16.2,"INDONESIA:  SULAWESI:  LUWUK, BANGGAI, PELENG,",-1.105,123.573,26.0,7.6,4.0,6.7,True,4.0,,,INDONESIA,170,264.0,3.0,23000.0,4.0,,,7.6,7.5,264.0,3.0,23000.0,4.0,54.0,2.0,30.0,,54.0,2.0,30.0,2338.0,,,,,,,,2000-05-04 00:00:00+00:00
5558,2000,5,7,23,10,54.1,"TURKEY:  DOGANYOL, PUTURGE",38.164,38.777,5.0,4.1,2.0,4.5,True,2.0,200.0,3.0,TURKEY,140,,,,,,,,4.1,1.0,1.0,,,,,,,,,,,,,,,,,,2000-05-07 00:00:00+00:00
5559,2000,5,17,3,25,48.7,TAIWAN:  TAI-CHUNG COUNTY,24.223,121.058,10.0,5.4,1.0,5.4,True,1.0,,,TAIWAN,30,13.0,1.0,,,,,5.4,5.3,13.0,1.0,,,3.0,1.0,,,3.0,1.0,,,,,,,,,,2000-05-17 00:00:00+00:00
5560,2000,6,4,16,28,26.1,"INDONESIA:  SUMATRA:  BENGKULU, ENGGANO",-4.721,102.087,33.0,7.9,3.0,6.8,True,3.0,,,INDONESIA,60,2174.0,4.0,,,,,7.9,8.0,2174.0,4.0,,,103.0,3.0,6.0,,103.0,3.0,6.0,,6.0,,,,,,,2000-06-04 00:00:00+00:00
5561,2000,6,6,2,41,49.8,"TURKEY:  CERKES, CUBUK, ORTA",40.693,32.992,10.0,6.0,3.0,5.5,True,3.0,4600.0,4.0,TURKEY,140,80.0,2.0,,,,,6.0,6.1,80.0,2.0,,,2.0,1.0,,,2.0,1.0,,,7.0,,,,,,,2000-06-06 00:00:00+00:00
5562,2000,6,7,21,46,54.9,CHINA:  YUNNAN PROVINCE:  LIUKU; MYANMAR,26.836,97.176,15.0,6.3,1.0,6.3,True,1.0,,2.0,MYANMAR (BURMA),60,,,,2.0,,2.0,6.3,6.5,,,,2.0,,,,,,,,,,,,,,,,2000-06-07 00:00:00+00:00
5563,2000,6,7,23,45,26.6,INDONESIA:  SOUTHERN SUMATERA:  LAHAT,-4.612,101.905,33.0,6.7,2.0,6.1,True,2.0,600.0,3.0,INDONESIA,60,,,,,600.0,3.0,6.7,6.7,,,,,1.0,1.0,,,1.0,1.0,,,,,,,,,,2000-06-07 00:00:00+00:00
5564,2000,6,10,18,23,29.3,TAIWAN:  NAN-TOU,23.843,121.225,33.0,6.4,1.0,6.2,True,1.0,,,TAIWAN,30,36.0,1.0,,,,,6.4,6.2,36.0,1.0,,,2.0,1.0,,,2.0,1.0,,,,,,,,,,2000-06-10 00:00:00+00:00
5565,2000,6,18,14,44,13.3,"AUSTRALIA:  S, COCOS ISLANDS",-13.802,97.453,10.0,7.9,,6.8,True,,,,AUSTRALIA,60,,,,,,,7.9,7.8,,,,,,,,,,,,2341.0,,,,,,,,2000-06-18 00:00:00+00:00
5566,2000,6,21,0,51,46.8,"ICELAND:  GRIMSNES, SELFOSS, EYRARBAKKI, STOKKSEYRI",63.98,-20.758,10.0,6.5,3.0,6.1,True,3.0,,,ICELAND,120,,,12.0,1.0,12.0,1.0,6.5,6.6,,,12.0,1.0,,,12.0,,,,12.0,,,,,,,,,2000-06-21 00:00:00+00:00
5568,2000,7,1,7,1,55.5,JAPAN:  NEAR S COAST HONSHU:  KOZU-SHIMA,34.221,139.131,10.0,6.1,1.0,6.0,True,1.0,,,JAPAN,30,,3.0,,,,,6.1,6.1,,3.0,,,1.0,1.0,,,1.0,1.0,,2340.0,,5104.0,,,,,,2000-07-01 00:00:00+00:00
5569,2000,7,6,19,30,20.3,NICARAGUA:  MASAYA,11.884,-85.988,33.0,5.4,3.0,5.0,True,3.0,1130.0,4.0,NICARAGUA,100,42.0,1.0,357.0,3.0,1130.0,4.0,5.4,5.1,42.0,1.0,357.0,3.0,7.0,1.0,,,7.0,1.0,,,,,,,,,,2000-07-06 00:00:00+00:00
5570,2000,7,12,1,10,42.6,"INDONESIA: JAWA:BANDUNG,CIBADAK,CIMANDIRI,KADUDAMPIT",-6.675,106.845,33.0,5.4,2.0,5.2,True,2.0,225.0,3.0,INDONESIA,60,6.0,1.0,,,225.0,3.0,5.4,5.0,6.0,1.0,,,,,,,,,,,,,,,,,,2000-07-12 00:00:00+00:00
5571,2000,7,15,1,30,30.5,JAPAN:  NEAR S COAST HONSHU:  NII-JIMA,34.319,139.26,10.0,6.1,1.0,5.5,True,1.0,20.0,1.0,JAPAN,30,10.0,1.0,,,20.0,1.0,6.1,5.9,10.0,1.0,,,,,,,,,,3508.0,,,,,,,,2000-07-15 00:00:00+00:00
5572,2000,7,16,3,21,45.5,"PHILIPPINES:  BASCO, MOUNT IRADA, BATAN ISLANDS",20.253,122.043,33.0,6.4,2.0,6.1,True,2.0,,3.0,PHILIPPINES,170,6.0,1.0,,,,3.0,6.4,6.3,6.0,1.0,,,,,,,,,,5994.0,,,,,,,,2000-07-16 00:00:00+00:00
5573,2002,7,22,5,45,3.0,"GERMANY:  AACHEN, COLOGNE, SPANGDAHLEM",50.889,6.103,17.0,4.8,1.0,4.8,True,1.0,,,GERMANY,120,,,,,,,,,,,,,,,,,,,,,,,,,,,,2002-07-22 00:00:00+00:00
5574,2000,8,4,21,13,2.7,"RUSSIA:  SAKHALIN ISLAND, UGLEGORSK, MAKAROV",48.786,142.246,10.0,6.8,1.0,6.3,True,1.0,1390.0,4.0,RUSSIA,50,8.0,1.0,,,1390.0,4.0,6.8,7.1,8.0,1.0,,,,,0.92,,,,0.92,,6.0,,,,,,,2000-08-04 00:00:00+00:00
5575,2000,8,21,13,25,44.5,CHINA:  YUNNAN PROVINCE:  WUDING,25.826,102.194,33.0,4.2,4.0,4.9,True,4.0,,,CHINA,30,406.0,3.0,,,,,,4.2,406.0,3.0,,,1.0,1.0,43.0,,1.0,1.0,43.0,,,,,,,,,2000-08-21 00:00:00+00:00
5576,2000,9,3,8,36,30.0,CALIFORNIA:  NAPA,38.379,-122.413,10.0,5.0,4.0,4.9,True,4.0,,,USA,150,41.0,1.0,,,,,5.0,4.9,41.0,1.0,,,,,50.0,,,,50.0,,7.0,,CA,,,,,2000-09-03 00:00:00+00:00
5577,2000,10,2,2,25,31.3,"TANZANIA:  NKANSI, RUKWA",-7.977,30.709,34.0,6.5,1.0,6.1,True,1.0,150.0,3.0,TANZANIA,10,6.0,1.0,7.0,1.0,150.0,3.0,6.5,6.7,6.0,1.0,7.0,1.0,,,,,,,,,,,,,,,,2000-10-02 00:00:00+00:00
5578,2000,10,6,4,30,19.1,"JAPAN:  HONSHU:  W:  OKAYAMA, TOTTORI",35.456,133.134,10.0,6.7,4.0,5.8,True,4.0,2230.0,4.0,JAPAN,30,130.0,3.0,104.0,3.0,2230.0,4.0,6.7,6.8,130.0,3.0,104.0,3.0,,,150.0,,,,150.0,,9.0,,,,,,,2000-10-06 00:00:00+00:00
5579,2000,10,30,22,39,6.5,AFGHANISTAN-TAJIKISTAN:  RAKHOR,37.542,69.582,33.0,5.1,2.0,5.2,True,2.0,800.0,3.0,AFGHANISTAN,40,,,,,,,5.1,4.5,,,,,,,,,,,,,,,,,,,,2000-10-30 00:00:00+00:00
5580,2000,11,8,6,59,58.8,PANAMA-COLOMBIA:  JURADO,7.042,-77.829,17.0,6.5,2.0,6.0,True,2.0,86.0,2.0,PANAMA,100,2.0,1.0,,,86.0,2.0,6.5,6.4,2.0,1.0,,,,,,,,,,,,,,,,,,2000-11-08 00:00:00+00:00
5581,2000,11,16,4,54,55.9,"PAPUA NEW GUINEA:  NEW IRELAND, DUKE OF YORK",-4.001,152.327,17.0,8.0,2.0,6.0,True,2.0,,,PAPUA NEW GUINEA,170,,,,3.0,,,8.0,8.2,,,,3.0,2.0,1.0,,,2.0,1.0,,2352.0,,,,,,,,2000-11-16 00:00:00+00:00
5582,2000,11,16,7,42,16.9,"PAPUA NEW GUINEA:  NEW IRELAND, NEW BRITAIN",-5.233,153.102,30.0,7.8,1.0,6.2,True,1.0,,,PAPUA NEW GUINEA,170,,,,,,,7.8,7.8,,,,,,,,,,,,,,,,,,,,2000-11-16 00:00:00+00:00
5583,2000,11,17,21,1,56.4,PAPUA NEW GUINEA:  NEW BRITAIN,-5.496,151.781,33.0,7.8,,6.2,True,,,,PAPUA NEW GUINEA,170,,,,,,,7.8,8.0,,,,,,,,,,,,,,,,,,,,2000-11-17 00:00:00+00:00
5584,2000,11,25,18,9,11.4,AZERBAIJAN:  BAKU,40.245,49.946,50.0,6.8,1.0,5.8,True,1.0,,,AZERBAIJAN,40,430.0,3.0,,,,,6.8,,430.0,3.0,,,31.0,1.0,,,31.0,1.0,,,,,,,,,,2000-11-25 00:00:00+00:00
5585,2000,12,6,17,11,6.4,TURKMENISTAN:  NEBITDAG-TURKMENBASHI,39.566,54.799,30.0,7.0,1.0,6.7,True,1.0,,,TURKMENISTAN,40,,2.0,,,,,7.0,7.5,,2.0,,,11.0,1.0,,,11.0,1.0,,,,,,,,,,2000-12-06 00:00:00+00:00
5586,2000,12,15,16,44,47.6,TURKEY:  AFYON-BOLVADIN,38.457,31.351,10.0,6.0,1.0,5.1,True,1.0,,2.0,TURKEY,140,41.0,1.0,,,,,6.0,5.8,41.0,1.0,,,6.0,1.0,,,6.0,1.0,,,7.0,,,,,,,2000-12-15 00:00:00+00:00
5587,2001,1,13,17,33,32.3,EL SALVADOR; GUATEMALA,13.049,-88.66,60.0,7.7,4.0,6.4,True,4.0,169632.0,4.0,EL SALVADOR,100,4723.0,4.0,108226.0,4.0,169632.0,4.0,7.7,7.8,4723.0,4.0,108226.0,4.0,844.0,3.0,753.0,,844.0,3.0,753.0,5444.0,8.0,,,,,,,2001-01-13 00:00:00+00:00
5589,2001,1,26,3,16,42.8,"INDIA:  GUJARAT:  BHUJ, AHMADABAD, RAJOKOT; PAKISTAN",23.388,70.326,17.0,7.6,4.0,6.9,True,4.0,,,INDIA,60,166836.0,4.0,339000.0,4.0,339000.0,4.0,7.6,8.0,166836.0,4.0,339000.0,4.0,20005.0,4.0,2623.0,,20005.0,4.0,2623.0,,10.0,,,,,,,2001-01-26 00:00:00+00:00
5592,2001,2,13,14,22,5.8,EL SALVADOR: SAN JUAN TEPEZONTES-SAN VICENTE-COJUTEP,13.671,-88.938,10.0,6.6,4.0,5.5,True,4.0,15706.0,4.0,EL SALVADOR,100,3399.0,4.0,41302.0,4.0,15706.0,4.0,6.6,6.5,3399.0,4.0,41302.0,4.0,315.0,3.0,348.5,,315.0,3.0,348.5,,6.0,,,,,,,2001-02-13 00:00:00+00:00
5593,2001,2,23,0,9,23.6,"CHINA:  SICHUAN PROVINCE:  KANGDING, YAJIANG",29.513,101.129,33.0,5.6,3.0,5.7,True,3.0,,,CHINA,30,109.0,3.0,60000.0,4.0,60000.0,4.0,5.6,5.4,109.0,3.0,60000.0,4.0,3.0,1.0,,,3.0,1.0,,,,,,,,,,2001-02-23 00:00:00+00:00
5595,2001,2,28,18,54,32.8,"WASHINGTON:  OLYMPIA, SEATTLE, TACOMA",47.149,-122.727,52.0,6.8,4.0,6.5,True,4.0,,,USA,150,400.0,3.0,,,,,6.8,6.6,400.0,3.0,,,1.0,1.0,2000.0,,1.0,1.0,2000.0,,8.0,,WA,,,,,2001-02-28 00:00:00+00:00
5596,2001,3,24,6,27,53.5,"JAPAN:  HIROSHIMA, OKAYAMA, HONSHU, KAGAMA",34.083,132.526,50.0,6.8,4.0,6.4,True,4.0,3700.0,4.0,JAPAN,30,161.0,3.0,,,3700.0,4.0,6.8,6.5,161.0,3.0,,,2.0,1.0,500.0,,2.0,1.0,500.0,,9.0,,,,,,,2001-03-24 00:00:00+00:00
5597,2001,5,8,18,2,16.9,EL SALVADOR:  CONCHAGUA,13.605,-88.795,10.0,5.7,2.0,5.2,True,2.0,70.0,2.0,EL SALVADOR,100,,,84.0,2.0,70.0,2.0,5.7,5.4,,,84.0,2.0,1.0,1.0,,,1.0,1.0,,,,,,,,,,2001-05-08 00:00:00+00:00
5598,2001,5,23,21,10,43.9,CHINA:  YUNNAN:  NINGLANG; SICHUAN:  YANYUAN,27.689,101.003,33.0,5.5,4.0,5.1,True,4.0,,,CHINA,30,605.0,3.0,,,,,5.5,5.3,605.0,3.0,,,2.0,1.0,36.0,,2.0,1.0,36.0,,,,,,,,,2001-05-23 00:00:00+00:00
5599,2001,6,1,14,0,43.6,AFGHANISTAN:  HINDU KUSH:  PARVAN,35.169,69.389,62.0,5.0,1.0,5.0,True,,,,AFGHANISTAN,40,20.0,1.0,,2.0,,2.0,5.0,4.6,20.0,1.0,,2.0,4.0,1.0,,,4.0,1.0,,,,,,,,,,2001-06-01 00:00:00+00:00
5601,2001,6,23,20,33,14.1,"PERU:  AREQUIPA, MOQUEGUA, TACNA, AYACUCHO",-16.265,-73.641,33.0,8.4,4.0,6.7,True,4.0,,,PERU,160,2713.0,4.0,22399.0,4.0,,,8.4,8.2,2713.0,4.0,25399.0,4.0,77.0,2.0,,,103.0,3.0,200.0,2373.0,8.0,,,68.0,2.0,138.0,3.0,2001-06-23 00:00:00+00:00
5602,2001,6,25,13,28,46.5,TURKEY:  OSMANIYE,37.238,36.206,5.0,5.5,1.0,5.2,True,1.0,66.0,2.0,TURKEY,140,130.0,3.0,,,,,5.5,4.9,130.0,3.0,,,,,,,,,,,,,,,,,,2001-06-25 00:00:00+00:00
5603,2001,7,5,13,53,48.3,"PERU:  CARAVELI, CHALA, ARICA, IQUIQUE, PARINACOTA",-16.086,-73.987,62.0,6.6,2.0,6.2,True,2.0,,,PERU,160,,,300.0,3.0,,,6.6,,,,300.0,3.0,,,,,,,,,,,,,,,,2001-07-05 00:00:00+00:00
5604,2001,7,7,9,38,43.5,"PERU:  AREQUIPA, ARICA",-17.543,-72.077,33.0,7.6,2.0,6.6,True,2.0,,,PERU,160,30.0,1.0,200.0,3.0,,,7.6,7.3,30.0,1.0,200.0,3.0,1.0,1.0,,,1.0,1.0,,,,,,,,,,2001-07-07 00:00:00+00:00
5605,2001,7,14,18,36,8.3,CHINA:  YUNNAN PROVINCE:  JIANGCHUAN,24.455,102.66,33.0,4.3,1.0,4.6,True,1.0,,,CHINA,30,2.0,1.0,150.0,3.0,150.0,3.0,,4.3,2.0,1.0,150.0,3.0,,,,4.7,,,,,,,,,,,,2001-07-14 00:00:00+00:00
5606,2001,7,26,0,21,36.9,GREECE:  SKYROS,39.059,24.244,10.0,6.5,1.0,6.0,True,1.0,100.0,2.0,GREECE,130,,,,,100.0,2.0,6.5,6.6,,,,,,,,,,,,,,,,,,,,2001-07-26 00:00:00+00:00
5607,2001,8,9,2,6,59.9,PERU:  ANTABAMA,-14.258,-72.683,33.0,5.8,2.0,5.4,True,2.0,,,PERU,160,15.0,1.0,,3.0,,,5.8,5.5,15.0,1.0,,3.0,4.0,1.0,,,4.0,1.0,,,,,,,,,,2001-08-09 00:00:00+00:00
5608,2001,9,9,23,59,18.0,CALIFORNIA:  LOS ANGELES,34.059,-118.387,5.0,4.2,1.0,4.2,True,1.0,,,USA,150,,,,,,,,,,,,,,,,,,,,,6.0,,CA,,,,,2001-09-09 00:00:00+00:00
5609,2001,10,12,15,2,16.8,GUAM,12.686,144.98,37.0,7.0,2.0,6.7,True,2.0,,,USA TERRITORY,170,1.0,1.0,,3.0,,,7.0,7.3,1.0,1.0,,3.0,,,,,,,,,8.0,,GU,,,,,2001-10-12 00:00:00+00:00
5610,2001,10,19,3,28,44.4,INDONESIA:  BANDA SEA,-4.102,123.907,33.0,7.5,,6.3,True,,,,INDONESIA,170,,,,,,,7.5,7.3,,,,,,,,,,,,,,,,,,,,2001-10-19 00:00:00+00:00
5611,2001,10,27,5,35,39.7,CHINA:  YUNNAN PROVINCE:  YONGSHENG,26.316,100.648,10.0,5.6,2.0,5.3,True,2.0,,,CHINA,30,220.0,3.0,3400.0,4.0,3400.0,4.0,5.6,5.5,220.0,3.0,3400.0,4.0,1.0,1.0,,,1.0,1.0,,,,,,,,,,2001-10-27 00:00:00+00:00
5612,2001,11,14,9,26,10.0,CHINA:  QINGHAI PROVINCE:  XIDATAN,35.946,90.541,10.0,7.8,1.0,6.1,True,1.0,,,CHINA,40,,,,2.0,,2.0,7.8,8.0,,,,2.0,,,,,,,,,,,,,,,,2001-11-14 00:00:00+00:00
5613,2001,12,19,7,54,7.9,BANGLADESH:  DHAKA,23.632,90.376,10.0,4.5,1.0,4.5,True,1.0,,2.0,BANGLADESH,60,100.0,2.0,,,,2.0,,,100.0,2.0,,,,,,,,,,,6.0,,,,,,,2001-12-19 00:00:00+00:00
5614,2002,1,2,17,22,48.7,"VANUATU ISLANDS:  EFATE, PORT VILA",-17.6,167.856,21.0,7.2,1.0,6.3,True,1.0,,2.0,VANUATU,170,,2.0,,,,2.0,7.2,7.5,,2.0,,,,,,,,,,2397.0,,,,,,,,2002-01-02 00:00:00+00:00
5615,2002,1,9,6,45,57.5,TAJIKISTAN:  ROGHUN,38.673,69.902,33.0,5.3,2.0,5.2,True,2.0,209.0,3.0,TAJIKISTAN,40,50.0,1.0,,,209.0,3.0,5.3,5.2,50.0,1.0,,,3.0,1.0,,,3.0,1.0,,,,,,,,,,2002-01-09 00:00:00+00:00
5616,2002,1,10,11,14,56.9,PAPUA NEW GUINEA:  AITAPE,-3.212,142.427,11.0,6.7,2.0,6.0,True,2.0,,,PAPUA NEW GUINEA,170,,,200.0,3.0,,,6.7,6.6,,,200.0,3.0,1.0,1.0,,,1.0,1.0,,,,,,,,,,2002-01-10 00:00:00+00:00
5617,2002,1,14,15,36,26.4,"CHILE: NORTHERN: CUYA, HUARA, IQUIQUE, POZO ALMONTE",-19.384,-69.231,33.0,5.6,1.0,5.5,True,1.0,,1.0,CHILE,160,,,,,,1.0,5.6,5.2,,,,,,,,,,,,,,,,,,,,2002-01-14 00:00:00+00:00
5618,2002,1,17,20,1,29.2,RWANDA:  GISENYI,-1.684,29.077,15.0,4.7,2.0,4.7,True,3.0,,,RWANDA,10,,,307.0,,,,,,400.0,3.0,307.0,3.0,,1.0,,,1001.0,2.0,,,,,,,,,,2002-01-17 00:00:00+00:00
5619,2002,1,30,8,42,3.4,"MEXICO:  VERACRUZ:  SAN ANDRES TUXTLA, TUXTEPEC",18.194,-95.908,109.0,5.9,1.0,5.6,True,1.0,,2.0,MEXICO,150,,,,,,2.0,5.9,,,,,,,,,,,,,,,,,,,,,2002-01-30 00:00:00+00:00
5620,2002,2,3,7,11,28.4,TURKEY:  AFYON,38.573,31.271,5.0,6.5,2.0,5.7,True,2.0,622.0,3.0,TURKEY,140,318.0,3.0,,,,,6.5,6.4,318.0,3.0,,,44.0,1.0,,,44.0,1.0,,,,,,,,,,2002-02-03 00:00:00+00:00
5621,2002,2,3,20,59,27.6,TAJIKISTAN:  ROGHUN,38.773,69.924,44.0,4.9,1.0,4.9,True,1.0,,2.0,TAJIKISTAN,40,,2.0,,,,2.0,,,,2.0,,,,,,,,,,,,,,,,,,2002-02-03 00:00:00+00:00
5622,2002,2,17,13,3,52.7,IRAN:  BAGHAN,28.093,51.755,33.0,5.4,2.0,5.6,True,2.0,,3.0,IRAN,140,30.0,1.0,,,,,5.4,5.0,30.0,1.0,,,1.0,1.0,,,1.0,1.0,,,,,,,,,,2002-02-17 00:00:00+00:00
5623,2002,2,22,19,32,41.7,"MEXICO:  MEXICALI, BAJA CALIFORNIA",32.319,-115.322,7.0,5.5,1.0,5.4,True,1.0,,,MEXICO,150,,,,,,,5.5,5.5,,,,,,,,,,,,,,,,,,,,2002-02-22 00:00:00+00:00
5624,2002,3,3,12,8,19.7,"AFGHANISTAN:  HINDU KUSH:  SAMANGHAN, KABUL, RUSTAQ",36.502,70.482,226.0,7.4,3.0,6.6,True,3.0,400.0,3.0,AFGHANISTAN,40,,2.0,300.0,3.0,300.0,3.0,7.4,,,2.0,300.0,3.0,166.0,3.0,,,166.0,3.0,,,,,,,,,,2002-03-03 00:00:00+00:00
5625,2002,3,5,21,16,9.1,PHILIPPINES:  MINDANAO,6.033,124.249,31.0,7.5,2.0,6.3,True,2.0,800.0,3.0,PHILIPPINES,170,100.0,2.0,,,800.0,3.0,7.5,7.2,100.0,2.0,,,15.0,1.0,1.714,,15.0,1.0,1.714,2394.0,,,,,,,,2002-03-05 00:00:00+00:00
5626,2002,3,25,14,56,33.8,"AFGHANISTAN:  HINDU KUSH:  BAGHLAN, NAHRIN",36.062,69.315,8.0,6.1,4.0,5.9,True,4.0,,,AFGHANISTAN,40,200.0,3.0,1500.0,4.0,1500.0,4.0,6.1,6.2,200.0,3.0,1500.0,4.0,1000.0,3.0,,,1000.0,3.0,,,,,,,,,,2002-03-25 00:00:00+00:00
5627,2002,3,31,6,52,50.4,TAIWAN:  TAIPEI,24.279,122.179,33.0,7.1,2.0,6.4,True,2.0,,,TAIWAN,30,200.0,3.0,100.0,2.0,,,7.1,7.4,200.0,3.0,100.0,2.0,5.0,1.0,,,5.0,1.0,,2396.0,,,,,,,,2002-03-31 00:00:00+00:00
5628,2002,4,1,19,59,32.4,"CHILE:  CENTRAL:  COQUIMBO, LA SERENA, OVALLE",-29.67,-71.384,71.0,6.4,1.0,6.1,True,1.0,,,CHILE,160,,,,,,,6.4,,,,,,,,,,,,,,,,,,,,,2002-04-01 00:00:00+00:00
5629,2002,4,12,4,0,23.7,TAJIKISTAN; AFGHANISTAN: DO ABI-NAHRIN,39.959,69.417,10.0,5.9,2.0,5.8,True,,250.0,3.0,TAJIKISTAN,40,150.0,3.0,160.0,3.0,160.0,3.0,5.9,5.9,150.0,3.0,160.0,3.0,50.0,1.0,,,50.0,1.0,,,,,,,,,,2002-04-12 00:00:00+00:00
5630,2002,4,18,16,8,36.7,"CHILE:  COPIAPO, TALTAL",-27.535,-70.586,62.0,6.6,2.0,6.2,True,2.0,575.0,3.0,CHILE,160,19.0,1.0,34.0,1.0,575.0,3.0,6.6,,19.0,1.0,34.0,1.0,,,,,,,,,,,,,,,,2002-04-18 00:00:00+00:00
5631,2002,4,20,10,50,47.5,"NEW YORK:  CLINTON, ESSEX, AU SABLE FORKS",44.513,-73.699,11.0,5.2,1.0,5.2,True,1.0,,,USA,150,,,,,,,5.2,4.2,,,,,,,,,,,,,7.0,,NY,,,,,2002-04-20 00:00:00+00:00
5632,2002,4,24,10,51,50.9,BALKANS NW:  KOSOVO; MACEDONIA:  N,42.436,21.466,10.0,5.7,4.0,5.6,True,4.0,,,SERBIA,130,100.0,2.0,,,,,5.7,5.6,100.0,2.0,,,1.0,1.0,350.0,,1.0,1.0,350.0,,,,,,,,,2002-04-24 00:00:00+00:00
5633,2002,4,24,19,48,7.1,IRAN:  WESTERN:  KERMANSHAH,34.642,47.4,33.0,5.4,4.0,5.2,True,4.0,,,IRAN,140,56.0,2.0,,4.0,,4.0,5.4,5.2,56.0,2.0,,4.0,2.0,1.0,,,2.0,1.0,,,,,,,,,,2002-04-24 00:00:00+00:00
5634,2002,4,25,17,41,21.5,GEORGIA:  TBILISI,41.765,44.96,10.0,4.3,3.0,4.8,True,3.0,2400.0,4.0,GEORGIA,40,52.0,2.0,,,2400.0,4.0,,4.3,52.0,2.0,,,5.0,1.0,,,5.0,1.0,,,,,,,,,,2002-04-25 00:00:00+00:00
5635,2002,4,26,16,6,7.0,GUAM,13.088,144.619,86.0,7.1,1.0,6.5,True,1.0,,,USA TERRITORY,170,5.0,1.0,,,,,7.1,,5.0,1.0,,,,,,,,,,,7.0,,GU,,,,,2002-04-26 00:00:00+00:00
5636,2002,5,18,15,15,8.8,TANZANIA:  BUNDA,-2.907,33.733,10.0,5.5,2.0,5.2,True,2.0,700.0,3.0,TANZANIA,10,,,690.0,3.0,700.0,3.0,5.5,5.5,,,690.0,3.0,2.0,1.0,,,2.0,1.0,,,,,,,,,,2002-05-18 00:00:00+00:00
5637,2002,5,28,4,4,22.5,"ARGENTINA:  AMINGA, ANILLACO, AGUA BLANCA, CHUQUIS",-28.937,-66.797,22.0,6.0,2.0,6.0,True,2.0,,3.0,ARGENTINA,160,27.0,1.0,40.0,1.0,,3.0,6.0,5.7,27.0,1.0,40.0,1.0,,,,,,,,,8.0,,,,,,,2002-05-28 00:00:00+00:00
5638,2002,6,20,5,40,43.3,"BANGLADESH:  RANGPUR, THAKURGAON, ALMANAGAR",25.842,88.932,40.0,4.5,1.0,4.5,True,1.0,,2.0,BANGLADESH,60,55.0,2.0,,,,2.0,,,55.0,2.0,,,,,,,,,,,,,,,,,,2002-06-20 00:00:00+00:00
5639,2002,6,22,2,58,21.3,IRAN:  AB GARM-ABHAR-AVAJ-SHIRIN SU,35.626,49.047,10.0,6.5,4.0,6.2,True,4.0,,4.0,IRAN,140,1300.0,4.0,,4.0,,4.0,6.5,6.4,1300.0,4.0,,4.0,261.0,3.0,300.0,,261.0,3.0,300.0,,8.0,,,,,,,2002-06-22 00:00:00+00:00
5641,2002,7,31,0,16,44.6,"PANAMA:  BARU, ALANJE, DAVID; COSTA RICA:  LAUREL",7.929,-82.793,10.0,6.5,2.0,6.0,True,2.0,,3.0,PANAMA,100,11.0,1.0,,2.0,,3.0,6.5,6.4,11.0,1.0,,2.0,,,,,,,,,7.0,,,,,,,2002-07-31 00:00:00+00:00
5642,2002,8,8,11,42,5.0,CHINA:  SICHUAN PROVINCE:  RULONG,30.916,99.927,33.0,5.3,1.0,5.4,True,1.0,,,CHINA,30,,,8.0,1.0,8.0,1.0,5.3,4.7,,,8.0,1.0,,,,,,,,,,,,,,,,2002-08-08 00:00:00+00:00
5643,2002,8,14,13,57,52.1,NORTHERN MARIANA ISLANDS:  SAIPAN,14.101,146.199,30.0,6.5,1.0,6.1,True,1.0,,1.0,USA TERRITORY,170,,,,,,1.0,6.5,6.4,,,,,,,,,,,,,,,MP,,,,,2002-08-14 00:00:00+00:00
5644,2002,8,15,5,30,26.2,INDONESIA:   SULAWESI:  TOJO,-1.196,121.333,10.0,6.2,2.0,5.7,True,2.0,200.0,3.0,INDONESIA,170,,,,,200.0,3.0,6.2,5.8,,,,,48.0,1.0,,,48.0,1.0,,,,,,,,,,2002-08-15 00:00:00+00:00
5645,2002,8,24,20,1,18.3,EGYPT:  CAIRO,30.2,31.41,10.0,4.4,1.0,4.4,True,1.0,44.0,1.0,EGYPT,15,,,,,44.0,1.0,,,,,,,,,,,,,,,,,,,,,,2002-08-24 00:00:00+00:00
5646,2002,9,2,1,0,3.2,"IRAN: KAK, RAZAN, SIZAN",35.701,48.838,10.0,5.2,1.0,5.1,True,1.0,,1.0,IRAN,140,,,,,,,5.2,,,,,,,,,,,,,,,,,,,,,2002-09-02 00:00:00+00:00
5647,2002,9,5,11,3,5.8,KYRGYZSTAN,39.77,72.007,32.0,5.5,1.0,5.3,True,1.0,,,KYRGYZSTAN,40,,,,,,,5.5,5.2,,,,,,,,,,,,,,,,,,,,2002-09-05 00:00:00+00:00
5648,2002,9,6,1,21,28.6,ITALY:  SICILY:  PALERMO,38.381,13.701,5.0,6.0,4.0,5.8,True,4.0,,2.0,ITALY,130,20.0,1.0,,,,2.0,6.0,5.5,20.0,1.0,,,2.0,1.0,500.0,,2.0,1.0,500.0,,,,,,,,,2002-09-06 00:00:00+00:00
5649,2002,9,8,18,44,25.5,"PAPUA NEW GUINEA:  KAIRIRU IS, MUSCHU IS, WEWAK",-3.26,142.94,13.0,7.6,3.0,6.5,True,3.0,873.0,3.0,PAPUA NEW GUINEA,170,70.0,2.0,,1.0,873.0,3.0,7.6,7.8,70.0,2.0,,1.0,4.0,1.0,,,4.0,1.0,,2398.0,,,,,,,,2002-09-08 00:00:00+00:00
5650,2002,9,13,22,28,29.4,"INDIA:  ANDAMAN ISLANDS:  RONGAT, DIGLIPUR,ARIEL BAY",13.036,93.068,21.0,6.5,1.0,6.2,True,2.0,,1.0,INDIA,60,,,40.0,1.0,,1.0,6.5,6.7,,,40.0,1.0,2.0,1.0,,,2.0,1.0,,2399.0,,,,,,,,2002-09-13 00:00:00+00:00
5651,2002,9,20,15,43,35.4,INDONESIA:  NEW GUINEA:  IRIAN JAYA:  RANSIKI,-1.68,134.234,10.0,6.4,1.0,5.9,True,1.0,31.0,1.0,INDONESIA,170,,,,,31.0,1.0,6.4,6.4,,,,,,,,,,,,,,,,,,,,2002-09-20 00:00:00+00:00
5652,2002,9,22,23,53,14.6,"UNITED KINGDOM:  MANSFIELD, DUDLEY",52.52,-2.15,9.0,4.8,1.0,4.8,True,1.0,,,UK,120,1.0,1.0,,,,,,,1.0,1.0,,,,,,5.0,,,,,6.0,,,,,,,2002-09-22 00:00:00+00:00
5653,2002,9,25,18,14,48.5,MEXICO:  ACAPULCO,16.87,-100.113,6.0,5.3,1.0,5.2,True,1.0,,2.0,MEXICO,150,2.0,1.0,,,,2.0,5.3,4.7,2.0,1.0,,,,,,,,,,,,,,,,,,2002-09-25 00:00:00+00:00
5654,2002,9,25,22,28,11.9,IRAN:  MASJED-E SOLEYMAN,31.995,49.329,10.0,5.6,2.0,5.5,True,2.0,,3.0,IRAN,140,5.0,1.0,,,,,5.6,5.1,5.0,1.0,,,,,,,,,,,,,,,,,,2002-09-25 00:00:00+00:00
5655,2002,9,30,6,44,48.0,"FRANCE:  HENNEBONT, LANGUIDIC, LORIENT, TREMOREL",47.832,-3.207,10.0,4.2,1.0,4.2,True,1.0,,1.0,FRANCE,120,,,,,,1.0,,,,,,,,,,4.5,,,,,,,,,,,,2002-09-30 00:00:00+00:00
5656,2002,10,10,10,50,20.5,"INDONESIA: NEW GUINEA: MANOKWARI, ORANSBARI, RANSIKI",-1.757,134.297,10.0,7.6,3.0,6.5,True,3.0,900.0,3.0,INDONESIA,170,632.0,3.0,1000.0,3.0,900.0,3.0,7.6,7.7,632.0,3.0,1000.0,3.0,8.0,1.0,,,8.0,1.0,,2400.0,,,,,,,,2002-10-10 00:00:00+00:00
5657,2002,10,23,11,27,19.4,"ALASKA:  CANTWELL, DENALI NATL PARK",63.514,-147.912,4.0,6.7,2.0,6.0,True,2.0,,,USA,150,,,,,,,6.7,6.7,,,,,,,,,,,,,8.0,,AK,,,,,2002-10-23 00:00:00+00:00
5658,2002,10,24,6,8,37.9,"CONGO: GOMA, LWIRO, BUKAVU; RWANDA:  MUGERA, KIGALI",-1.884,29.004,11.0,6.2,1.0,5.9,True,1.0,,,CONGO,10,,,,2.0,,,6.2,6.3,,,,2.0,2.0,1.0,,,2.0,1.0,,,,,,,,,,2002-10-24 00:00:00+00:00
5659,2002,10,29,10,2,21.5,ITALY:  SICILY:  SANTA VENERINA,37.67,15.267,10.0,4.3,1.0,4.3,True,1.0,,2.0,ITALY,130,9.0,1.0,,,,2.0,,,9.0,1.0,,,,,,4.5,,,,,8.0,5487.0,,,,,,2002-10-29 00:00:00+00:00
5660,2002,10,31,10,32,58.7,"ITALY:  SAN GUILIANO DI PUGLIA, CAMPOBASSO",41.789,14.872,10.0,5.7,4.0,5.3,True,4.0,,4.0,ITALY,130,135.0,3.0,,,,4.0,5.7,5.6,135.0,3.0,,,30.0,1.0,796.0,,30.0,1.0,796.0,,7.0,,,,,,,2002-10-31 00:00:00+00:00
5661,2002,11,1,22,9,29.2,PAKISTAN:  GILGIT,35.517,74.654,33.0,5.4,3.0,5.3,True,3.0,1000.0,4.0,PAKISTAN,60,40.0,1.0,,3.0,,3.0,5.4,5.3,40.0,1.0,,,11.0,1.0,,,11.0,1.0,,,,,,,,,,2002-11-01 00:00:00+00:00
5662,2002,11,2,1,26,10.7,INDONESIA:  SUMATERA:  SIMEULUE,2.824,96.085,30.0,7.3,3.0,6.2,True,3.0,994.0,3.0,INDONESIA,60,65.0,2.0,,,994.0,3.0,7.3,7.6,65.0,2.0,,,3.0,1.0,,,3.0,1.0,,,,,,,,,,2002-11-02 00:00:00+00:00
5663,2002,11,3,22,12,41.0,"ALASKA:  SLANA, MENTASTA LAKE, FAIRBANKS",63.517,-147.444,5.0,7.9,4.0,7.0,True,4.0,,,USA,150,1.0,1.0,,,,,7.9,8.5,1.0,1.0,,,,,56.0,,,,56.0,,9.0,,AK,,,,,2002-11-03 00:00:00+00:00
5664,2002,11,20,21,32,30.8,"PAKISTAN:  DASHKIN, DOIAN, MUSHKIN",35.414,74.515,33.0,6.3,3.0,5.7,True,3.0,1256.0,4.0,PAKISTAN,60,40.0,1.0,100.0,2.0,100.0,2.0,6.3,6.5,40.0,1.0,100.0,2.0,19.0,1.0,,,19.0,1.0,,,,,,,,,,2002-11-20 00:00:00+00:00
5665,2002,11,27,16,43,17.5,VANUATU ISLANDS: MERE LAVA ISLAND,-14.49,167.827,33.0,5.9,2.0,5.6,True,2.0,100.0,2.0,VANUATU,170,3.0,1.0,,,,,5.9,5.8,3.0,1.0,,,,,,,,,,,,,,,,,,2002-11-27 00:00:00+00:00
5666,2002,12,2,4,58,55.1,"GREECE:  MEGALOPOLIS, VARTHOLOMION",37.747,21.087,10.0,5.7,2.0,5.2,True,2.0,100.0,2.0,GREECE,130,17.0,1.0,8.0,1.0,100.0,2.0,5.7,5.4,17.0,1.0,8.0,1.0,,,,,,,,,,,,,,,,2002-12-02 00:00:00+00:00
5667,2002,12,14,13,27,29.1,CHINA:  GANSU PROVINCE:  YUMNE,39.736,97.443,22.0,5.5,3.0,5.6,True,3.0,,,CHINA,30,,,13380.0,4.0,,,5.5,5.3,,,13380.0,4.0,2.0,1.0,,,2.0,1.0,,,,,,,,,,2002-12-14 00:00:00+00:00
5668,2002,12,24,17,3,2.9,IRAN:  KERMANSHAH,34.594,47.454,33.0,5.2,3.0,5.1,True,3.0,,,IRAN,140,15.0,1.0,3000.0,4.0,3000.0,4.0,5.2,4.4,15.0,1.0,3000.0,4.0,,,,,,,,,,,,,,,,2002-12-24 00:00:00+00:00
5669,2002,12,25,12,57,3.2,CHINA:  XINJIANG:  WUQIA,39.57,75.254,10.0,5.7,1.0,5.5,True,1.0,,,CHINA,40,,,,2.0,,,5.7,5.6,,,,2.0,,,,,,,,,,,,,,,,2002-12-25 00:00:00+00:00
5670,2002,12,25,19,13,42.7,AFGHANISTAN:  JALALABAD,35.704,69.868,91.0,5.5,1.0,5.3,True,1.0,,1.0,AFGHANISTAN,40,,,,,,,5.5,,,,,,,,,,,,,,,,,,,,,2002-12-25 00:00:00+00:00
5671,2003,1,11,17,45,30.6,"IRAN:  KAZERUN, NURABAD",29.59,51.474,33.0,5.2,3.0,5.2,True,3.0,1350.0,4.0,IRAN,140,,2.0,650.0,3.0,650.0,3.0,5.2,5.0,,2.0,650.0,3.0,,,,,,,,,,,,,,,,2003-01-11 00:00:00+00:00
5672,2003,1,20,8,43,6.0,"SOLOMON ISLANDS:  HONIARA, SAN CRISTOBAL",-10.491,160.77,33.0,7.3,,6.7,True,,,,SOLOMON ISLANDS,170,,,,,,,7.3,7.8,,,,,,,,,,,,2401.0,,,,,,,,2003-01-20 00:00:00+00:00
5673,2003,1,22,2,6,34.6,"MEXICO:  VILLA DE ALVAREZ, COLIMA, TECOMAN, JALISCO",18.77,-104.104,24.0,7.5,4.0,6.5,True,4.0,6615.0,4.0,MEXICO,150,1073.0,4.0,2005.0,4.0,6615.0,4.0,7.5,7.6,1073.0,4.0,2005.0,4.0,29.0,1.0,116.3,,29.0,1.0,116.3,2402.0,8.0,,,,,,,2003-01-22 00:00:00+00:00
5674,2003,1,23,0,8,22.8,INDONESIA:  SUMBAWA ISLAND:  DOMPU,-8.807,118.524,33.0,5.5,2.0,5.3,True,2.0,500.0,3.0,INDONESIA,60,2.0,1.0,,,500.0,3.0,5.5,5.1,2.0,1.0,,,,,,,,,,,6.0,,,,,,,2003-01-23 00:00:00+00:00
5675,2003,1,26,19,57,3.2,"ITALY:  SPINELLO, SANTA SOFIA, BAGNO DI ROMAGNA",43.883,11.96,7.0,4.7,1.0,4.7,True,1.0,,1.0,ITALY,130,,,,,,1.0,,,,,,,,,,4.6,,,,,7.0,,,,,,,2003-01-26 00:00:00+00:00
5676,2003,1,27,5,26,23.0,"TURKEY:  SAGLAMTAS, PULUMUR",39.5,39.878,10.0,6.1,1.0,5.6,True,1.0,,2.0,TURKEY,140,,2.0,,,,,6.1,6.0,,2.0,,,1.0,1.0,,,1.0,1.0,,,,,,,,,,2003-01-27 00:00:00+00:00
5680,2003,2,22,12,19,10.5,CALIFORNIA:  BIG BEAR CITY,34.31,-116.848,1.0,5.2,1.0,4.9,True,1.0,,,USA,150,,,,,,,5.2,4.8,,,,,,,,,,,,,6.0,,CA,,,,,2003-02-22 00:00:00+00:00
5681,2003,2,22,20,41,3.4,"FRANCE:  BACCARAT, COLMAR, THANN; GERMANY:  EDIGEN",48.342,6.57,10.0,5.0,1.0,5.0,True,1.0,,,FRANCE,120,,,,,,,5.0,,,,,,,,,5.7,,,,,,,,,,,,2003-02-22 00:00:00+00:00
5682,2003,2,24,2,3,41.4,CHINA:  S. XINJIANG:  BACHU,39.61,77.23,11.0,6.3,4.0,5.8,True,4.0,,,CHINA,40,4000.0,4.0,71000.0,4.0,,,6.3,6.3,4000.0,4.0,71000.0,4.0,261.0,3.0,,,261.0,3.0,,,,,,,,,,2003-02-24 00:00:00+00:00
5683,2003,2,25,3,52,41.0,CHINA:  S. XINJIANG:  BACHU,39.483,77.393,10.0,5.4,1.0,5.1,True,1.0,,,CHINA,40,,,,,,,5.4,5.3,,,,,5.0,1.0,,,5.0,1.0,,,,,,,,,,2003-02-25 00:00:00+00:00
5684,2003,3,21,11,38,20.0,"INDONESIA:  JAVA:  CARACAS, CILIMUS, SAMPORA",-6.983,108.468,33.0,4.6,2.0,4.6,True,2.0,800.0,3.0,INDONESIA,60,,,,,,,,,,,,,,,,,,,,,,,,,,,,2003-03-21 00:00:00+00:00
5685,2003,2,13,17,34,20.9,CHINA:  N. XINJIANG:  URUMQI,43.897,85.923,24.0,5.3,1.0,5.2,True,1.0,,,CHINA,40,,,,,,,5.3,5.2,,,,,,,,,,,,,,,,,,,,2003-02-13 00:00:00+00:00
5686,2003,3,22,13,36,16.0,GERMANY:  ALBSTADT,48.21,9.0,6.0,4.7,1.0,,True,1.0,,,GERMANY,120,,,,,,,,,,,,,,,,4.7,,,,,,,,,,,,2003-03-22 00:00:00+00:00
5688,2003,6,20,13,30,41.6,"CHILE:  OVALLE, COQUIMBO; ARGENTINA:  SAN JUAN",-30.608,-71.637,33.0,6.8,1.0,6.4,True,1.0,,2.0,CHILE,160,1.0,1.0,,,,2.0,6.8,6.8,1.0,1.0,,,,,,,,,,,6.0,,,,,,,2003-06-20 00:00:00+00:00
5689,2003,3,25,18,51,26.3,BHUTAN:  PHUENTSHOLING,27.264,89.331,47.0,5.5,1.0,4.8,True,1.0,,1.0,BHUTAN,60,,,,,,,5.5,4.8,,,,,,,,,,,,,,,,,,,,2003-03-25 00:00:00+00:00
5690,2003,4,10,0,40,15.1,"TURKEY:  IZMIR, SEFERIHISAR",38.221,26.958,10.0,5.7,2.0,5.6,True,2.0,,2.0,TURKEY,140,90.0,2.0,,2.0,,2.0,5.7,5.6,90.0,2.0,,2.0,,,,,,,,,,,,,,,,2003-04-10 00:00:00+00:00
5691,2003,4,17,0,48,38.5,CHINA:  QINGHAI PROVINCE:  DELINGHA,37.529,96.476,14.0,6.4,1.0,6.2,True,1.0,,,CHINA,30,,,45.0,1.0,45.0,1.0,6.4,6.3,,,45.0,1.0,,,,,,,,,,,,,,,,2003-04-17 00:00:00+00:00
5692,2003,5,1,0,27,4.7,TURKEY:  BINGOL,39.007,40.464,10.0,6.4,3.0,5.7,True,3.0,2593.0,4.0,TURKEY,140,521.0,3.0,718.0,3.0,718.0,3.0,6.4,6.4,521.0,3.0,718.0,3.0,177.0,3.0,,,177.0,3.0,,,,,,,,,,2003-05-01 00:00:00+00:00
5693,2003,5,4,15,44,35.5,CHINA:  S. XINJIANG:  YOPURGA,39.43,77.219,10.0,5.8,3.0,5.0,True,3.0,,,CHINA,40,3.0,1.0,1600.0,4.0,,,5.8,5.6,3.0,1.0,1600.0,4.0,1.0,1.0,,,1.0,1.0,,,,,,,,,,2003-05-04 00:00:00+00:00
5694,2003,5,21,18,44,20.1,"ALGERIA:  ALGIERS, BOUMERDES, REGHIA, THENIA",36.964,3.634,12.0,6.8,4.0,6.5,True,4.0,163000.0,4.0,ALGERIA,15,11000.0,4.0,19000.0,4.0,163000.0,4.0,6.8,6.9,11000.0,4.0,19000.0,4.0,2287.0,4.0,5000.0,,2287.0,4.0,5000.0,2403.0,10.0,,,800.0,3.0,800.0,3.0,2003-05-21 00:00:00+00:00
5695,2003,5,26,9,24,33.4,"JAPAN:  HONSHU:  IWATE, MIYAGI, YAMAGATA, AKITA",38.849,141.568,68.0,7.0,4.0,6.7,True,4.0,720.0,3.0,JAPAN,30,143.0,3.0,,,720.0,3.0,7.0,,143.0,3.0,,,,,233.0,,,,233.0,,,,,,,,,2003-05-26 00:00:00+00:00
5696,2003,5,26,19,23,27.9,"INDONESIA:  MOROTAI, BEREBERE, DARUBA",2.354,128.855,31.0,7.0,1.0,6.5,True,1.0,20.0,1.0,INDONESIA,170,7.0,1.0,28.0,1.0,20.0,1.0,7.0,7.1,7.0,1.0,28.0,1.0,1.0,1.0,,,1.0,1.0,,,,,,,,,,2003-05-26 00:00:00+00:00
5697,2003,5,27,17,11,28.8,"ALGERIA:  ALGIERS, BOUMERDES, REGHAIA",36.939,3.578,8.0,5.7,2.0,5.5,True,2.0,,,ALGERIA,15,200.0,3.0,,3.0,,,5.7,5.5,200.0,3.0,,3.0,9.0,1.0,,,9.0,1.0,,3618.0,,,,,,,,2003-05-27 00:00:00+00:00
5698,2003,6,6,12,29,34.0,KENTUCKY:  BARDWELL,36.87,-88.98,3.0,4.0,1.0,3.9,True,1.0,,,USA,150,,,,,,,4.0,,,,,,,,,,,,,,6.0,,KY,,,,,2003-06-06 00:00:00+00:00
5699,2003,6,9,7,6,39.3,"GREECE:  GONNOI, LARISA",39.893,22.309,18.0,5.2,1.0,4.9,True,1.0,50.0,1.0,GREECE,130,,,,,50.0,1.0,5.2,4.9,,,,,,,,,,,,,,,,,,,,2003-06-09 00:00:00+00:00
5700,2003,2,15,5,47,58.9,PHILIPPINES: LUZON:  DIMASALANG,12.171,123.921,10.0,5.8,1.0,5.4,True,1.0,,,PHILIPPINES,170,,,,,,,5.8,5.6,,,,,,,,,,,,,6.0,,,,,,,2003-02-15 00:00:00+00:00
5701,2003,2,15,11,1,59.8,"PHILIPPINES: MASBATE, DIMASALANG",12.168,124.079,10.0,6.3,1.0,5.8,True,1.0,,2.0,PHILIPPINES,170,,,,,,2.0,6.3,6.2,,,,,,,,,,,,5995.0,6.0,,,,,,,2003-02-15 00:00:00+00:00
5702,2003,3,25,2,53,25.0,INDONESIA:  FLORES:  REO,-8.294,120.743,33.0,6.5,1.0,6.2,True,1.0,,2.0,INDONESIA,60,20.0,1.0,,,,2.0,6.5,6.1,20.0,1.0,,,4.0,1.0,,,4.0,1.0,,,,,,,,,,2003-03-25 00:00:00+00:00
5703,2003,4,29,8,59,39.0,"ALABAMA:  FORT PAYNE,GAYLESVILLE,VALLEY HEAD",34.494,-85.629,20.0,4.6,1.0,4.4,True,1.0,,,USA,150,,,,,,,4.6,,,,,,,,,,,,,,6.0,,AL,,,,,2003-04-29 00:00:00+00:00
5704,2003,7,3,14,59,32.2,"IRAN:  NORTHEASTERN: YAKHAK, BASHIRABAD, BUTEHGAZ",35.476,60.784,41.0,5.2,1.0,5.2,True,1.0,90.0,2.0,IRAN,140,,,,,,,5.2,4.9,,,,,,,,,,,,,,,,,,,,2003-07-03 00:00:00+00:00
5705,2003,7,10,17,6,37.6,IRAN:  SOUTHERN: GAJJIABAD,28.355,54.169,10.0,5.8,3.0,5.9,True,3.0,,,IRAN,140,25.0,1.0,3500.0,4.0,,,5.8,5.5,25.0,1.0,3500.0,4.0,1.0,1.0,21.6,,1.0,1.0,21.6,,7.0,,,,,,,2003-07-10 00:00:00+00:00
5706,2003,7,15,20,27,50.5,INDIAN OCEAN:  FELT IN MALDIVES,-2.598,68.382,10.0,7.6,,6.1,True,,,,INDIAN OCEAN,60,,,,,,,7.6,7.6,,,,,,,,,,,,,,,,,,,,2003-07-15 00:00:00+00:00
5707,2003,7,21,15,16,31.9,CHINA:  YUNNAN PROVINCE,25.975,101.29,10.0,5.9,4.0,5.4,True,4.0,,,CHINA,30,584.0,3.0,264878.0,4.0,264878.0,4.0,5.9,6.0,584.0,3.0,264878.0,4.0,16.0,1.0,75.0,,16.0,1.0,75.0,,,,,,,,,2003-07-21 00:00:00+00:00
5708,2003,7,25,15,13,7.7,"JAPAN:  HONSHU:  MIYAGI, IWATE",38.432,141.003,10.0,5.5,4.0,5.6,True,4.0,1025.0,4.0,JAPAN,30,569.0,3.0,,,1025.0,4.0,5.5,4.9,569.0,3.0,,,,,411.0,,,,411.0,,,,,,,,,2003-07-25 00:00:00+00:00
5709,2003,7,26,1,0,57.6,TURKEY:  WESTERN:  BULDAN,38.111,28.887,10.0,4.5,1.0,4.5,True,1.0,48.0,1.0,TURKEY,140,,2.0,,,,,,,,2.0,,,,,,5.0,,,,,,,,,,,,2003-07-26 00:00:00+00:00
5710,2003,7,26,8,36,49.1,TURKEY:  WESTERN:  BULDAN,38.019,28.927,10.0,5.4,1.0,5.0,True,1.0,,1.0,TURKEY,140,10.0,1.0,1.0,1.0,1.0,1.0,5.4,5.2,10.0,1.0,1.0,1.0,,,,,,,,,,,,,,,,2003-07-26 00:00:00+00:00
5711,2003,7,26,23,18,17.9,BANGLADESH:  RANGAMATI,22.854,92.306,10.0,5.7,2.0,5.5,True,2.0,,,BANGLADESH,60,25.0,1.0,500.0,3.0,,,5.7,5.5,25.0,1.0,500.0,3.0,2.0,1.0,,,2.0,1.0,,,,,,,,,,2003-07-26 00:00:00+00:00
5712,2003,8,4,4,37,20.1,SCOTIA SEA:  SOUTH ORKNEY ISLANDS: LAURIE IS,-60.532,-43.411,10.0,7.6,1.0,6.2,True,1.0,,,ANTARCTICA,20,,,,,,,7.6,7.5,,,,,,,,,,,,5774.0,,,,,,,,2003-08-04 00:00:00+00:00
5713,2003,8,11,0,19,9.2,INDONESIA:  HALMAHERA:  WASILE,1.142,128.152,10.0,6.0,2.0,5.7,True,2.0,200.0,3.0,INDONESIA,170,,,,,200.0,3.0,6.0,5.6,,,,,,,,,,,,,,,,,,,,2003-08-11 00:00:00+00:00
5714,2003,8,13,8,29,27.2,"PANAMA:  COLON, PANAMA CITY",9.355,-79.941,54.0,5.4,1.0,5.0,True,1.0,,,PANAMA,100,,,,,,,5.4,,,,,,,,,,,,,,,,,,,,,2003-08-13 00:00:00+00:00
5715,2003,8,14,5,14,54.7,"GREECE:  LEFKADA, PREVEZA",39.16,20.605,10.0,6.3,2.0,5.6,True,2.0,,2.0,GREECE,130,50.0,1.0,,,,2.0,6.3,6.2,50.0,1.0,,,,,,,,,,5791.0,,,,,,,,2003-08-14 00:00:00+00:00
5716,2003,8,16,10,58,42.7,"CHINA:  NEI MONGOL:  LINDONG, TIANSHAN",43.77,119.643,24.0,5.4,3.0,5.5,True,3.0,,,CHINA,30,1000.0,3.0,7900.0,3.0,,,5.4,5.1,1000.0,3.0,7900.0,4.0,4.0,1.0,,,4.0,1.0,,,,,,,,,,2003-08-16 00:00:00+00:00
5717,2003,8,18,9,3,3.5,"CHINA:  TIBET (XIZANG PROVINCE): BOMI,MEDOG,NYINGCHI",29.573,95.605,33.0,5.5,1.0,5.6,True,1.0,,,CHINA,40,,,,,,,5.5,5.3,,,,,,,,,,,,,,,,,,,,2003-08-18 00:00:00+00:00
5719,2003,8,21,12,12,49.7,"NEW ZEALAND:  DUNEDIN,INVERCARGILL,TE ANAU,FIORDLAND",-45.104,167.144,28.0,7.2,1.0,6.6,True,1.0,,,NEW ZEALAND,170,,1.0,,,,,7.2,7.5,,1.0,,,,,,7.1,,,,2953.0,,,,,,,,2003-08-21 00:00:00+00:00
5720,2003,9,14,21,42,51.8,"ITALY:  LOIANO, MONGHIDORO, MONZUNO",44.329,11.45,10.0,5.3,1.0,5.1,True,1.0,10.0,1.0,ITALY,130,,2.0,,,10.0,1.0,5.3,5.2,,2.0,,,,,,,,,,,7.0,,,,,,,2003-09-14 00:00:00+00:00
5721,2003,9,20,3,54,50.7,JAPAN:  HONSHU:  TOKYO,34.998,140.172,52.0,5.7,1.0,5.4,True,1.0,,2.0,JAPAN,30,7.0,1.0,,,,2.0,5.7,,7.0,1.0,,,,,,,,,,,,,,,,,,2003-09-20 00:00:00+00:00
5722,2003,9,21,18,16,13.4,MYANMAR (BURMA):  TAUNGDWINGYI; THAILAND:  BANGKOK,19.917,95.672,10.0,6.6,1.0,6.1,True,1.0,180.0,3.0,MYANMAR (BURMA),60,43.0,1.0,,,180.0,3.0,6.6,6.9,43.0,1.0,,,7.0,1.0,,,7.0,1.0,,,,,,,,,,2003-09-21 00:00:00+00:00
5723,2003,9,22,4,45,36.2,"DOMINICAN REPUBLIC:  PUERTO PLATA, SANTIAGO",19.777,-70.673,10.0,6.4,3.0,6.2,True,3.0,,,DOMINICAN REPUBLIC,90,15.0,1.0,,3.0,,,6.4,6.6,15.0,1.0,,3.0,3.0,1.0,,,3.0,1.0,,,10.0,,,,,,,2003-09-22 00:00:00+00:00
5724,2003,9,25,19,50,6.3,JAPAN:  HOKKAIDO,41.815,143.91,27.0,8.3,4.0,6.9,True,4.0,,,JAPAN,30,849.0,3.0,,,,,8.3,8.1,849.0,3.0,,,,,90.0,,2.0,1.0,90.0,2406.0,,,,,,,,2003-09-25 00:00:00+00:00
5725,2003,9,27,11,33,25.0,"RUSSIA:  KOSH-AGACH, UST'-ULAGAN, ONGUDAI, SHEBALINO",50.038,87.813,16.0,7.3,3.0,6.5,True,3.0,,,RUSSIA,40,5.0,1.0,300.0,3.0,,,7.3,7.5,5.0,1.0,300.0,3.0,3.0,1.0,10.6,,3.0,1.0,10.6,,10.0,,,,,,,2003-09-27 00:00:00+00:00
5726,2003,9,29,15,27,1.0,RUSSIA:  KOSH-AGACH,50.0,87.89,10.0,4.4,1.0,5.1,True,1.0,,,RUSSIA,40,,,,,,,,4.4,,,,,,,,,,,,,,,,,,,,2003-09-29 00:00:00+00:00
5727,2003,9,29,18,22,32.0,NEW ZEALAND:  CHRISTCHURCH,-43.34,173.04,32.0,4.8,1.0,4.8,True,1.0,,,NEW ZEALAND,170,,,,,,,,,,,,,,,,4.9,,,,,,,,,,,,2003-09-29 00:00:00+00:00
5728,2003,10,1,1,3,25.2,"RUSSIA:  KOSH-AGACH, BARNAUL, GORNO-ALTAYSK",50.211,87.721,10.0,6.7,1.0,6.3,True,1.0,,1.0,RUSSIA,40,,,,,,1.0,6.7,7.1,,,,,,,,,,,,,,,,,,,,2003-10-01 00:00:00+00:00
5729,2003,10,15,7,30,35.9,JAPAN:  NEAR S COAST HONSHU:  ATSUGI,35.457,139.871,78.0,5.2,1.0,5.0,True,1.0,,,JAPAN,30,,,,,,,5.2,,,,,,,,,,,,,,,,,,,,,2003-10-15 00:00:00+00:00
5730,2003,10,16,3,20,55.3,"DOMINICAN REPUBLIC:   MOCA, SANTIAGO",19.761,-70.693,10.0,4.5,1.0,4.8,True,1.0,,1.0,DOMINICAN REPUBLIC,90,,,,,,1.0,,4.5,,,,,,,,,,,,,,,,,,,,2003-10-16 00:00:00+00:00
5731,2003,10,16,12,28,9.0,CHINA:  YUNNAN PROVINCE:  DAYAO,25.954,101.254,33.0,5.6,3.0,5.2,True,3.0,,,CHINA,30,32.0,1.0,12000.0,4.0,12000.0,4.0,5.6,5.6,32.0,1.0,12000.0,4.0,3.0,1.0,,,3.0,1.0,,,,,,,,,,2003-10-16 00:00:00+00:00
5732,2003,10,25,12,41,35.2,"CHINA:  GANSU PROVINCE:  MINLE, SHANDAN",38.4,100.951,10.0,5.8,4.0,5.8,True,4.0,,,CHINA,30,43.0,1.0,10000.0,4.0,,,5.8,5.7,43.0,1.0,10000.0,4.0,9.0,1.0,40.0,,9.0,1.0,40.0,,,,,,,,,2003-10-25 00:00:00+00:00
5733,2003,11,13,2,35,10.3,"CHINA:  GANSU PROVINCE:  JONE, LINTAN, MINXIAN",34.712,103.834,10.0,5.1,1.0,5.1,True,1.0,,,CHINA,30,30.0,1.0,10.0,1.0,,,5.1,5.1,30.0,1.0,10.0,1.0,1.0,1.0,,,1.0,1.0,,,,,,,,,,2003-11-13 00:00:00+00:00
5734,2003,11,14,18,49,46.5,"CHINA:  YUNNAN PROVINCE:  LUDIAN, ZHAOTONG",27.372,103.971,33.0,5.6,2.0,5.0,True,2.0,,,CHINA,30,65.0,1.0,600.0,3.0,600.0,3.0,5.6,,65.0,1.0,600.0,3.0,4.0,1.0,,,4.0,1.0,,,,,,,,,,2003-11-14 00:00:00+00:00
5735,2003,11,17,6,43,6.8,ALASKA:  ALEUTIAN ISLANDS:  RAT ISLANDS,51.146,178.65,33.0,7.8,,6.2,True,,,,USA,150,,,,,,,7.8,7.2,,,,,,,,,,,,2429.0,,,AK,,,,,2003-11-17 00:00:00+00:00
5736,2003,11,18,17,14,22.6,PHILIPPINES:  SAMAR:  CAN-AVID,12.025,125.416,35.0,6.5,2.0,6.1,True,2.0,,3.0,PHILIPPINES,170,21.0,1.0,1.0,1.0,,3.0,6.5,6.5,21.0,1.0,1.0,1.0,1.0,1.0,,,1.0,1.0,,,7.0,,,,,,,2003-11-18 00:00:00+00:00
5737,2003,11,26,13,38,57.8,CHINA:  YUNNAN PROVINCE:  LUDIAN,27.283,103.753,33.0,4.7,4.0,4.7,True,4.0,,,CHINA,30,4.0,1.0,2000.0,4.0,2000.0,4.0,,,4.0,1.0,2000.0,4.0,,,,,,,,,,,,,,,,2003-11-26 00:00:00+00:00
5738,2003,12,1,1,38,31.9,CHINA:  XINJIANG:  ZHAOSU,42.905,80.515,10.0,6.0,3.0,6.0,True,3.0,,,CHINA,40,47.0,1.0,769.0,3.0,,,6.0,5.9,47.0,1.0,769.0,3.0,11.0,1.0,,,11.0,1.0,,,,,,,,,,2003-12-01 00:00:00+00:00
5745,2003,12,5,23,41,27.4,"INDONESIA:  FLORES, RUTENG",-8.137,120.524,33.0,4.9,1.0,5.4,True,1.0,,1.0,INDONESIA,60,,,,,,1.0,,4.9,,,,,,,,,,,,,,,,,,,,2003-12-05 00:00:00+00:00
5746,2003,12,10,4,38,11.5,"TAIWAN:  T'AI-TUNG, KAO-HSIUN",23.039,121.362,10.0,6.8,1.0,6.0,True,1.0,,,TAIWAN,30,1.0,1.0,,,,,6.8,6.7,1.0,1.0,,,,,,,,,,,,,,,,,,2003-12-10 00:00:00+00:00
5747,2003,12,11,16,28,17.3,IRAN:  WESTERN:  MASJED-E- SOLEYMAN,31.953,49.209,33.0,5.0,1.0,5.0,True,1.0,,,IRAN,140,5.0,1.0,2.0,1.0,2.0,1.0,,,5.0,1.0,1.0,1.0,,0.0,,,,,,,,,,,,,,2003-12-11 00:00:00+00:00
5748,2003,12,17,23,15,17.2,BULGARIA: POVADIYA,43.083,27.486,34.0,4.4,2.0,4.4,True,2.0,150.0,3.0,BULGARIA,110,,,10.0,1.0,10.0,1.0,,,,,10.0,1.0,,,,,,,,,,,,,,,,2003-12-17 00:00:00+00:00
5749,2003,12,22,19,15,56.0,"CALIFORNIA:  PASO ROBLES,TEMPLETON,ATASCADERO",35.706,-121.102,8.0,6.6,4.0,6.1,True,4.0,,,USA,150,47.0,1.0,40.0,1.0,,,6.6,6.4,47.0,1.0,40.0,1.0,2.0,1.0,263.0,,2.0,1.0,263.0,,8.0,,CA,,,,,2003-12-22 00:00:00+00:00
5750,2003,12,25,7,11,11.5,PANAMA-COSTA RICA:  PUERTO ARMUELLES,8.416,-82.824,33.0,6.5,2.0,6.0,True,2.0,,3.0,PANAMA,100,75.0,2.0,,,,3.0,6.5,6.4,75.0,2.0,,,2.0,1.0,,,2.0,1.0,,,,,,,,,,2003-12-25 00:00:00+00:00
5751,2003,12,26,1,56,52.4,"IRAN:  SOUTHEASTERN:  BAM, BARAVAT",28.995,58.311,10.0,6.6,4.0,6.0,True,4.0,,,IRAN,140,30000.0,4.0,,4.0,,4.0,6.6,6.8,30000.0,4.0,,4.0,31000.0,4.0,500.0,,31000.0,4.0,500.0,,9.0,,,,,,,2003-12-26 00:00:00+00:00
5752,2004,1,1,20,59,31.9,"INDONESIA:  BALI, LOMBOK",-8.31,115.788,45.0,5.8,3.0,5.5,True,3.0,,,INDONESIA,60,29.0,1.0,6000.0,4.0,,,5.8,5.4,29.0,1.0,6000.0,4.0,1.0,1.0,12.0,,1.0,1.0,12.0,,6.0,,,,,,,2004-01-01 00:00:00+00:00
5753,2004,1,1,23,31,50.0,"MEXICO:  GUERRERO, MEXICO CITY",17.488,-101.303,29.0,6.1,1.0,5.6,True,1.0,,,MEXICO,150,,,,,,,6.1,5.7,,,,,,,,,,,,,,,,,,,,2004-01-01 00:00:00+00:00
5754,2004,1,10,7,43,18.0,SLOVAKIA:  SLOVENSKO L'UPCA,48.758,19.217,5.0,2.2,1.0,,True,1.0,,,SLOVAKIA,110,,,,,,,,,,,,,,,,2.2,,,,,,,,,,,,2004-01-10 00:00:00+00:00
5755,2004,1,10,18,38,14.8,"ALGERIA:  NORTHERN:  ALGIERS, BOUMERDES",36.852,3.418,10.0,4.4,1.0,4.5,True,1.0,,,ALGERIA,15,300.0,3.0,,,,,,4.4,300.0,3.0,,,,,,4.6,,,,,,,,,,,,2004-01-10 00:00:00+00:00
5756,2004,1,14,16,58,48.1,IRAN:  SOUTHERN:  FIRUZABAD,27.695,52.397,12.0,5.2,1.0,5.4,True,1.0,,,IRAN,140,,,,,,,5.2,,,,,,,,,,,,,,,,,,,,,2004-01-14 00:00:00+00:00
5757,2004,2,4,11,59,47.6,PANAMA-COSTA RICA:  CHIRIQUI,8.358,-82.877,29.0,6.1,1.0,5.6,True,1.0,,,PANAMA,100,4.0,1.0,,,,,6.1,5.9,4.0,1.0,,,,,,,,,,,,,,,,,,2004-02-04 00:00:00+00:00
5758,2004,2,5,21,5,2.8,INDONESIA:  NABIRE,-3.615,135.538,17.0,7.0,2.0,6.1,True,2.0,,,INDONESIA,170,682.0,3.0,2678.0,4.0,,,7.0,7.1,682.0,3.0,2678.0,4.0,37.0,1.0,1.0,,37.0,1.0,1.0,,,,,,,,,2004-02-05 00:00:00+00:00
5759,2004,2,7,2,42,35.2,INDONESIA:  NABIRE,-4.003,135.023,10.0,7.3,1.0,6.2,True,1.0,,,INDONESIA,170,,,,,,,7.3,7.5,,,,,,,,,,,,,,,,,,,,2004-02-07 00:00:00+00:00
5760,2004,2,11,8,15,3.8,"JORDAN:  MA'IN; ISRAEL:  JERUSALEM, PETAH-TIQWA",31.675,35.551,27.0,5.3,2.0,5.1,True,2.0,,2.0,JORDAN,140,4.0,1.0,,,,2.0,5.3,4.8,4.0,1.0,,,,,,,,,,4562.0,,,,,,,,2004-02-11 00:00:00+00:00
5761,2004,2,14,10,30,22.1,"PAKISTAN:  BALAKOT, BATGRAM, MANSEHRA",34.774,73.216,11.0,5.4,3.0,5.4,True,3.0,5379.0,4.0,PAKISTAN,60,40.0,1.0,1420.0,4.0,1420.0,4.0,5.4,5.2,40.0,1.0,1420.0,4.0,24.0,1.0,,,24.0,1.0,,,,,,,,,,2004-02-14 00:00:00+00:00
5762,2004,2,16,14,44,39.9,INDONESIA:  SUMATRA:  PADANGPANJANG,-0.466,100.655,56.0,5.1,1.0,5.2,True,,100.0,2.0,INDONESIA,60,7.0,1.0,,,,,5.1,4.5,7.0,1.0,,,5.0,1.0,,,5.0,1.0,,,,,,,,,,2004-02-16 00:00:00+00:00
5763,2004,2,22,6,46,27.0,INDONESIA:  SUMATRA:  PESISIR SELATAN,-1.559,100.488,42.0,6.0,1.0,6.3,True,1.0,,3.0,INDONESIA,60,1.0,1.0,,,,,6.0,5.7,1.0,1.0,,,,,,,,,,,,,,,,,,2004-02-22 00:00:00+00:00
5764,2004,2,24,2,14,34.0,BURUNDI:  RUYAGA,-3.393,29.558,10.0,4.7,1.0,4.7,True,1.0,,,BURUNDI,10,,,24.0,1.0,,,,,,,24.0,1.0,3.0,1.0,,,3.0,1.0,,,,,,,,,,2004-02-24 00:00:00+00:00
5765,2004,2,24,2,27,46.2,"MOROCCO:  AL HOCEIMA, IMZOURENE, BENI ABDALLAH",35.142,-3.997,0.0,6.4,4.0,6.2,True,4.0,,,MOROCCO,15,926.0,3.0,2539.0,4.0,,,6.4,6.4,926.0,3.0,2539.0,4.0,628.0,3.0,400.0,,628.0,3.0,400.0,,9.0,,,,,,,2004-02-24 00:00:00+00:00
5766,2004,3,1,0,35,58.0,GREECE:  SOUTHERN:  KALAMATA,37.136,22.116,9.0,5.2,1.0,5.4,True,1.0,,1.0,GREECE,130,,,,,,1.0,5.2,4.8,,,,,,,,5.1,,,,,,,,,,,,2004-03-01 00:00:00+00:00
5767,2004,3,25,19,30,49.0,TURKEY:  ERZURUM,39.93,40.812,,5.6,1.0,5.0,True,1.0,,,TURKEY,140,46.0,1.0,45.0,1.0,45.0,1.0,5.6,5.4,46.0,1.0,45.0,1.0,10.0,1.0,,,10.0,1.0,,,,,,,,,,2004-03-25 00:00:00+00:00
5768,2004,3,24,1,53,49.4,"CHINA:  NEI MONGOL:  BAYAN UL HOT, ULIASTAI",45.382,118.256,19.0,5.4,4.0,5.6,True,4.0,,,CHINA,30,100.0,2.0,38000.0,4.0,,,5.4,5.2,100.0,2.0,38000.0,4.0,,,74.0,,,,74.0,,,,,,,,,2004-03-24 00:00:00+00:00
